header:
  stamp:
    sec: 1685637602
    nanosec: 385930114
  frame_id: gps_left
status:
  status: 0
  service: 1
latitude: 49.8923553
longitude: -97.2060994
altitude: 198.222
position_covariance:
- 0.0
- 0.0
- 0.0
- 0.0
- 0.0
- 0.0
- 0.0
- 0.0
- 0.0
position_covariance_type: 0
---
header:
  stamp:
    sec: 1685637602
    nanosec: 609486626
  frame_id: gps_left
status:
  status: 0
  service: 1
latitude: 49.89235509999999
longitude: -97.2060994
altitude: 198.214
position_covariance:
- 0.0
- 0.0
- 0.0
- 0.0
- 0.0
- 0.0
- 0.0
- 0.0
- 0.0
position_covariance_type: 0
---
header:
  stamp:
    sec: 1685637603
    nanosec: 162983549
  frame_id: gps_left
status:
  status: 0
  service: 1
latitude: 49.8923546
longitude: -97.2060985
altitude: 198.131
position_covariance:
- 0.0
- 0.0
- 0.0
- 0.0
- 0.0
- 0.0
- 0.0
- 0.0
- 0.0
position_covariance_type: 0
---
header:
  stamp:
    sec: 1685637603
    nanosec: 275305894
  frame_id: gps_left
status:
  status: 0
  service: 1
latitude: 49.8923546
longitude: -97.2060985
altitude: 198.121
position_covariance:
- 0.0
- 0.0
- 0.0
- 0.0
- 0.0
- 0.0
- 0.0
- 0.0
- 0.0
position_covariance_type: 0
---
header:
  stamp:
    sec: 1685637603
    nanosec: 386457625
  frame_id: gps_left
status:
  status: 0
  service: 1
latitude: 49.8923546
longitude: -97.2060985
altitude: 198.14600000000002
position_covariance:
- 0.0
- 0.0
- 0.0
- 0.0
- 0.0
- 0.0
- 0.0
- 0.0
- 0.0
position_covariance_type: 0
---
header:
  stamp:
    sec: 1685637604
    nanosec: 117252531
  frame_id: gps_left
status:
  status: 0
  service: 1
latitude: 49.8923541
longitude: -97.2060975
altitude: 198.055
position_covariance:
- 0.0
- 0.0
- 0.0
- 0.0
- 0.0
- 0.0
- 0.0
- 0.0
- 0.0
position_covariance_type: 0
---
header:
  stamp:
    sec: 1685637604
    nanosec: 362637016
  frame_id: gps_left
status:
  status: 0
  service: 1
latitude: 49.8923541
longitude: -97.20609759999999
altitude: 198.028
position_covariance:
- 0.0
- 0.0
- 0.0
- 0.0
- 0.0
- 0.0
- 0.0
- 0.0
- 0.0
position_covariance_type: 0
---
header:
  stamp:
    sec: 1685637604
    nanosec: 605099960
  frame_id: gps_left
status:
  status: 0
  service: 1
latitude: 49.8923541
longitude: -97.2060975
altitude: 198.017
position_covariance:
- 0.0
- 0.0
- 0.0
- 0.0
- 0.0
- 0.0
- 0.0
- 0.0
- 0.0
position_covariance_type: 0
---
header:
  stamp:
    sec: 1685637604
    nanosec: 737966891
  frame_id: gps_left
status:
  status: 0
  service: 1
latitude: 49.8923542
longitude: -97.206097
altitude: 198.00900000000001
position_covariance:
- 0.0
- 0.0
- 0.0
- 0.0
- 0.0
- 0.0
- 0.0
- 0.0
- 0.0
position_covariance_type: 0
---
header:
  stamp:
    sec: 1685637604
    nanosec: 871113098
  frame_id: gps_left
status:
  status: 0
  service: 1
latitude: 49.8923542
longitude: -97.206097
altitude: 198.014
position_covariance:
- 0.0
- 0.0
- 0.0
- 0.0
- 0.0
- 0.0
- 0.0
- 0.0
- 0.0
position_covariance_type: 0
---
header:
  stamp:
    sec: 1685637604
    nanosec: 983295693
  frame_id: gps_left
status:
  status: 0
  service: 1
latitude: 49.8923542
longitude: -97.206097
altitude: 197.985
position_covariance:
- 0.0
- 0.0
- 0.0
- 0.0
- 0.0
- 0.0
- 0.0
- 0.0
- 0.0
position_covariance_type: 0
---
header:
  stamp:
    sec: 1685637605
    nanosec: 93308972
  frame_id: gps_left
status:
  status: 0
  service: 1
latitude: 49.8923542
longitude: -97.2060968
altitude: 197.954
position_covariance:
- 0.0
- 0.0
- 0.0
- 0.0
- 0.0
- 0.0
- 0.0
- 0.0
- 0.0
position_covariance_type: 0
---
header:
  stamp:
    sec: 1685637605
    nanosec: 359898649
  frame_id: gps_left
status:
  status: 0
  service: 1
latitude: 49.8923543
longitude: -97.20609669999999
altitude: 197.957
position_covariance:
- 0.0
- 0.0
- 0.0
- 0.0
- 0.0
- 0.0
- 0.0
- 0.0
- 0.0
position_covariance_type: 0
---
header:
  stamp:
    sec: 1685637605
    nanosec: 471423742
  frame_id: gps_left
status:
  status: 0
  service: 1
latitude: 49.8923542
longitude: -97.2060965
altitude: 197.941
position_covariance:
- 0.0
- 0.0
- 0.0
- 0.0
- 0.0
- 0.0
- 0.0
- 0.0
- 0.0
position_covariance_type: 0
---
header:
  stamp:
    sec: 1685637605
    nanosec: 737555798
  frame_id: gps_left
status:
  status: 0
  service: 1
latitude: 49.89235439999999
longitude: -97.2060968
altitude: 197.94400000000002
position_covariance:
- 0.0
- 0.0
- 0.0
- 0.0
- 0.0
- 0.0
- 0.0
- 0.0
- 0.0
position_covariance_type: 0
---
header:
  stamp:
    sec: 1685637605
    nanosec: 870805466
  frame_id: gps_left
status:
  status: 0
  service: 1
latitude: 49.89235439999999
longitude: -97.2060965
altitude: 197.923
position_covariance:
- 0.0
- 0.0
- 0.0
- 0.0
- 0.0
- 0.0
- 0.0
- 0.0
- 0.0
position_covariance_type: 0
---
header:
  stamp:
    sec: 1685637605
    nanosec: 981640799
  frame_id: gps_left
status:
  status: 0
  service: 1
latitude: 49.89235439999999
longitude: -97.2060965
altitude: 197.907
position_covariance:
- 0.0
- 0.0
- 0.0
- 0.0
- 0.0
- 0.0
- 0.0
- 0.0
- 0.0
position_covariance_type: 0
---
header:
  stamp:
    sec: 1685637606
    nanosec: 115695880
  frame_id: gps_left
status:
  status: 0
  service: 1
latitude: 49.8923546
longitude: -97.20609669999999
altitude: 197.912
position_covariance:
- 0.0
- 0.0
- 0.0
- 0.0
- 0.0
- 0.0
- 0.0
- 0.0
- 0.0
position_covariance_type: 0
---
header:
  stamp:
    sec: 1685637606
    nanosec: 358143911
  frame_id: gps_left
status:
  status: 0
  service: 1
latitude: 49.8923547
longitude: -97.2060966
altitude: 197.894
position_covariance:
- 0.0
- 0.0
- 0.0
- 0.0
- 0.0
- 0.0
- 0.0
- 0.0
- 0.0
position_covariance_type: 0
---
header:
  stamp:
    sec: 1685637606
    nanosec: 470623319
  frame_id: gps_left
status:
  status: 0
  service: 1
latitude: 49.8923548
longitude: -97.2060966
altitude: 197.89000000000001
position_covariance:
- 0.0
- 0.0
- 0.0
- 0.0
- 0.0
- 0.0
- 0.0
- 0.0
- 0.0
position_covariance_type: 0
---
header:
  stamp:
    sec: 1685637606
    nanosec: 602399256
  frame_id: gps_left
status:
  status: 0
  service: 1
latitude: 49.8923548
longitude: -97.2060965
altitude: 197.864
position_covariance:
- 0.0
- 0.0
- 0.0
- 0.0
- 0.0
- 0.0
- 0.0
- 0.0
- 0.0
position_covariance_type: 0
---
header:
  stamp:
    sec: 1685637606
    nanosec: 735068290
  frame_id: gps_left
status:
  status: 0
  service: 1
latitude: 49.892354899999994
longitude: -97.20609639999999
altitude: 197.87
position_covariance:
- 0.0
- 0.0
- 0.0
- 0.0
- 0.0
- 0.0
- 0.0
- 0.0
- 0.0
position_covariance_type: 0
---
header:
  stamp:
    sec: 1685637606
    nanosec: 868139006
  frame_id: gps_left
status:
  status: 0
  service: 1
latitude: 49.892354899999994
longitude: -97.20609639999999
altitude: 197.86
position_covariance:
- 0.0
- 0.0
- 0.0
- 0.0
- 0.0
- 0.0
- 0.0
- 0.0
- 0.0
position_covariance_type: 0
---
header:
  stamp:
    sec: 1685637606
    nanosec: 980347330
  frame_id: gps_left
status:
  status: 0
  service: 1
latitude: 49.892354999999995
longitude: -97.20609619999999
altitude: 197.866
position_covariance:
- 0.0
- 0.0
- 0.0
- 0.0
- 0.0
- 0.0
- 0.0
- 0.0
- 0.0
position_covariance_type: 0
---
header:
  stamp:
    sec: 1685637607
    nanosec: 91354318
  frame_id: gps_left
status:
  status: 0
  service: 1
latitude: 49.892354999999995
longitude: -97.20609619999999
altitude: 197.868
position_covariance:
- 0.0
- 0.0
- 0.0
- 0.0
- 0.0
- 0.0
- 0.0
- 0.0
- 0.0
position_covariance_type: 0
---
header:
  stamp:
    sec: 1685637607
    nanosec: 245431722
  frame_id: gps_left
status:
  status: 0
  service: 1
latitude: 49.89235519999999
longitude: -97.2060958
altitude: 197.85
position_covariance:
- 0.0
- 0.0
- 0.0
- 0.0
- 0.0
- 0.0
- 0.0
- 0.0
- 0.0
position_covariance_type: 0
---
header:
  stamp:
    sec: 1685637607
    nanosec: 356813031
  frame_id: gps_left
status:
  status: 0
  service: 1
latitude: 49.8923553
longitude: -97.2060959
altitude: 197.859
position_covariance:
- 0.0
- 0.0
- 0.0
- 0.0
- 0.0
- 0.0
- 0.0
- 0.0
- 0.0
position_covariance_type: 0
---
header:
  stamp:
    sec: 1685637607
    nanosec: 489179683
  frame_id: gps_left
status:
  status: 0
  service: 1
latitude: 49.8923553
longitude: -97.20609569999999
altitude: 197.84
position_covariance:
- 0.0
- 0.0
- 0.0
- 0.0
- 0.0
- 0.0
- 0.0
- 0.0
- 0.0
position_covariance_type: 0
---
header:
  stamp:
    sec: 1685637607
    nanosec: 601207487
  frame_id: gps_left
status:
  status: 0
  service: 1
latitude: 49.8923553
longitude: -97.20609549999999
altitude: 197.82500000000002
position_covariance:
- 0.0
- 0.0
- 0.0
- 0.0
- 0.0
- 0.0
- 0.0
- 0.0
- 0.0
position_covariance_type: 0
---
header:
  stamp:
    sec: 1685637607
    nanosec: 712011746
  frame_id: gps_left
status:
  status: 0
  service: 1
latitude: 49.8923554
longitude: -97.20609549999999
altitude: 197.82
position_covariance:
- 0.0
- 0.0
- 0.0
- 0.0
- 0.0
- 0.0
- 0.0
- 0.0
- 0.0
position_covariance_type: 0
---
header:
  stamp:
    sec: 1685637607
    nanosec: 866680536
  frame_id: gps_left
status:
  status: 0
  service: 1
latitude: 49.8923556
longitude: -97.20609549999999
altitude: 197.81
position_covariance:
- 0.0
- 0.0
- 0.0
- 0.0
- 0.0
- 0.0
- 0.0
- 0.0
- 0.0
position_covariance_type: 0
---
header:
  stamp:
    sec: 1685637607
    nanosec: 978344099
  frame_id: gps_left
status:
  status: 0
  service: 1
latitude: 49.892355699999996
longitude: -97.2060953
altitude: 197.80100000000002
position_covariance:
- 0.0
- 0.0
- 0.0
- 0.0
- 0.0
- 0.0
- 0.0
- 0.0
- 0.0
position_covariance_type: 0
---
header:
  stamp:
    sec: 1685637608
    nanosec: 112341545
  frame_id: gps_left
status:
  status: 0
  service: 1
latitude: 49.8923558
longitude: -97.2060952
altitude: 197.798
position_covariance:
- 0.0
- 0.0
- 0.0
- 0.0
- 0.0
- 0.0
- 0.0
- 0.0
- 0.0
position_covariance_type: 0
---
header:
  stamp:
    sec: 1685637608
    nanosec: 244536125
  frame_id: gps_left
status:
  status: 0
  service: 1
latitude: 49.892356
longitude: -97.2060951
altitude: 197.774
position_covariance:
- 0.0
- 0.0
- 0.0
- 0.0
- 0.0
- 0.0
- 0.0
- 0.0
- 0.0
position_covariance_type: 0
---
header:
  stamp:
    sec: 1685637608
    nanosec: 355177497
  frame_id: gps_left
status:
  status: 0
  service: 1
latitude: 49.89235609999999
longitude: -97.2060952
altitude: 197.768
position_covariance:
- 0.0
- 0.0
- 0.0
- 0.0
- 0.0
- 0.0
- 0.0
- 0.0
- 0.0
position_covariance_type: 0
---
header:
  stamp:
    sec: 1685637608
    nanosec: 487433552
  frame_id: gps_left
status:
  status: 0
  service: 1
latitude: 49.89235609999999
longitude: -97.2060949
altitude: 197.76500000000001
position_covariance:
- 0.0
- 0.0
- 0.0
- 0.0
- 0.0
- 0.0
- 0.0
- 0.0
- 0.0
position_covariance_type: 0
---
header:
  stamp:
    sec: 1685637608
    nanosec: 598215571
  frame_id: gps_left
status:
  status: 0
  service: 1
latitude: 49.892356299999996
longitude: -97.2060948
altitude: 197.736
position_covariance:
- 0.0
- 0.0
- 0.0
- 0.0
- 0.0
- 0.0
- 0.0
- 0.0
- 0.0
position_covariance_type: 0
---
header:
  stamp:
    sec: 1685637608
    nanosec: 865687559
  frame_id: gps_left
status:
  status: 0
  service: 1
latitude: 49.89235659999999
longitude: -97.20609449999999
altitude: 197.697
position_covariance:
- 0.0
- 0.0
- 0.0
- 0.0
- 0.0
- 0.0
- 0.0
- 0.0
- 0.0
position_covariance_type: 0
---
header:
  stamp:
    sec: 1685637608
    nanosec: 978254075
  frame_id: gps_left
status:
  status: 0
  service: 1
latitude: 49.8923567
longitude: -97.20609449999999
altitude: 197.69
position_covariance:
- 0.0
- 0.0
- 0.0
- 0.0
- 0.0
- 0.0
- 0.0
- 0.0
- 0.0
position_covariance_type: 0
---
header:
  stamp:
    sec: 1685637609
    nanosec: 109161172
  frame_id: gps_left
status:
  status: 0
  service: 1
latitude: 49.8923568
longitude: -97.2060944
altitude: 197.655
position_covariance:
- 0.0
- 0.0
- 0.0
- 0.0
- 0.0
- 0.0
- 0.0
- 0.0
- 0.0
position_covariance_type: 0
---
header:
  stamp:
    sec: 1685637609
    nanosec: 221565729
  frame_id: gps_left
status:
  status: 0
  service: 1
latitude: 49.892356899999996
longitude: -97.2060944
altitude: 197.655
position_covariance:
- 0.0
- 0.0
- 0.0
- 0.0
- 0.0
- 0.0
- 0.0
- 0.0
- 0.0
position_covariance_type: 0
---
header:
  stamp:
    sec: 1685637609
    nanosec: 354549145
  frame_id: gps_left
status:
  status: 0
  service: 1
latitude: 49.892357100000005
longitude: -97.2060941
altitude: 197.632
position_covariance:
- 0.0
- 0.0
- 0.0
- 0.0
- 0.0
- 0.0
- 0.0
- 0.0
- 0.0
position_covariance_type: 0
---
header:
  stamp:
    sec: 1685637609
    nanosec: 465555557
  frame_id: gps_left
status:
  status: 0
  service: 1
latitude: 49.8923572
longitude: -97.2060941
altitude: 197.62
position_covariance:
- 0.0
- 0.0
- 0.0
- 0.0
- 0.0
- 0.0
- 0.0
- 0.0
- 0.0
position_covariance_type: 0
---
header:
  stamp:
    sec: 1685637609
    nanosec: 597181151
  frame_id: gps_left
status:
  status: 0
  service: 1
latitude: 49.8923573
longitude: -97.2060939
altitude: 197.582
position_covariance:
- 0.0
- 0.0
- 0.0
- 0.0
- 0.0
- 0.0
- 0.0
- 0.0
- 0.0
position_covariance_type: 0
---
header:
  stamp:
    sec: 1685637609
    nanosec: 709551786
  frame_id: gps_left
status:
  status: 0
  service: 1
latitude: 49.892357399999995
longitude: -97.2060937
altitude: 197.572
position_covariance:
- 0.0
- 0.0
- 0.0
- 0.0
- 0.0
- 0.0
- 0.0
- 0.0
- 0.0
position_covariance_type: 0
---
header:
  stamp:
    sec: 1685637609
    nanosec: 730951131
  frame_id: gps_left
status:
  status: 0
  service: 1
latitude: 49.892357499999996
longitude: -97.2060935
altitude: 197.565
position_covariance:
- 0.0
- 0.0
- 0.0
- 0.0
- 0.0
- 0.0
- 0.0
- 0.0
- 0.0
position_covariance_type: 0
---
header:
  stamp:
    sec: 1685637609
    nanosec: 863627269
  frame_id: gps_left
status:
  status: 0
  service: 1
latitude: 49.892357700000005
longitude: -97.2060936
altitude: 197.54
position_covariance:
- 0.0
- 0.0
- 0.0
- 0.0
- 0.0
- 0.0
- 0.0
- 0.0
- 0.0
position_covariance_type: 0
---
header:
  stamp:
    sec: 1685637609
    nanosec: 996015714
  frame_id: gps_left
status:
  status: 0
  service: 1
latitude: 49.8923578
longitude: -97.2060934
altitude: 197.53
position_covariance:
- 0.0
- 0.0
- 0.0
- 0.0
- 0.0
- 0.0
- 0.0
- 0.0
- 0.0
position_covariance_type: 0
---
header:
  stamp:
    sec: 1685637610
    nanosec: 107610025
  frame_id: gps_left
status:
  status: 0
  service: 1
latitude: 49.8923579
longitude: -97.20609309999999
altitude: 197.523
position_covariance:
- 0.0
- 0.0
- 0.0
- 0.0
- 0.0
- 0.0
- 0.0
- 0.0
- 0.0
position_covariance_type: 0
---
header:
  stamp:
    sec: 1685637610
    nanosec: 240585473
  frame_id: gps_left
status:
  status: 0
  service: 1
latitude: 49.8923582
longitude: -97.20609259999999
altitude: 197.457
position_covariance:
- 0.0
- 0.0
- 0.0
- 0.0
- 0.0
- 0.0
- 0.0
- 0.0
- 0.0
position_covariance_type: 0
---
header:
  stamp:
    sec: 1685637610
    nanosec: 351999712
  frame_id: gps_left
status:
  status: 0
  service: 1
latitude: 49.8923583
longitude: -97.2060927
altitude: 197.461
position_covariance:
- 0.0
- 0.0
- 0.0
- 0.0
- 0.0
- 0.0
- 0.0
- 0.0
- 0.0
position_covariance_type: 0
---
header:
  stamp:
    sec: 1685637610
    nanosec: 484139793
  frame_id: gps_left
status:
  status: 0
  service: 1
latitude: 49.8923583
longitude: -97.20609259999999
altitude: 197.45600000000002
position_covariance:
- 0.0
- 0.0
- 0.0
- 0.0
- 0.0
- 0.0
- 0.0
- 0.0
- 0.0
position_covariance_type: 0
---
header:
  stamp:
    sec: 1685637610
    nanosec: 595899328
  frame_id: gps_left
status:
  status: 0
  service: 1
latitude: 49.8923585
longitude: -97.2060923
altitude: 197.416
position_covariance:
- 0.0
- 0.0
- 0.0
- 0.0
- 0.0
- 0.0
- 0.0
- 0.0
- 0.0
position_covariance_type: 0
---
header:
  stamp:
    sec: 1685637610
    nanosec: 729672732
  frame_id: gps_left
status:
  status: 0
  service: 1
latitude: 49.89235869999999
longitude: -97.206092
altitude: 197.368
position_covariance:
- 0.0
- 0.0
- 0.0
- 0.0
- 0.0
- 0.0
- 0.0
- 0.0
- 0.0
position_covariance_type: 0
---
header:
  stamp:
    sec: 1685637610
    nanosec: 861836879
  frame_id: gps_left
status:
  status: 0
  service: 1
latitude: 49.892358800000004
longitude: -97.20609189999999
altitude: 197.336
position_covariance:
- 0.0
- 0.0
- 0.0
- 0.0
- 0.0
- 0.0
- 0.0
- 0.0
- 0.0
position_covariance_type: 0
---
header:
  stamp:
    sec: 1685637610
    nanosec: 994361330
  frame_id: gps_left
status:
  status: 0
  service: 1
latitude: 49.89235889999999
longitude: -97.2060918
altitude: 197.311
position_covariance:
- 0.0
- 0.0
- 0.0
- 0.0
- 0.0
- 0.0
- 0.0
- 0.0
- 0.0
position_covariance_type: 0
---
header:
  stamp:
    sec: 1685637611
    nanosec: 105618602
  frame_id: gps_left
status:
  status: 0
  service: 1
latitude: 49.892359000000006
longitude: -97.2060916
altitude: 197.299
position_covariance:
- 0.0
- 0.0
- 0.0
- 0.0
- 0.0
- 0.0
- 0.0
- 0.0
- 0.0
position_covariance_type: 0
---
header:
  stamp:
    sec: 1685637611
    nanosec: 239378501
  frame_id: gps_left
status:
  status: 0
  service: 1
latitude: 49.892359199999994
longitude: -97.2060913
altitude: 197.238
position_covariance:
- 0.0
- 0.0
- 0.0
- 0.0
- 0.0
- 0.0
- 0.0
- 0.0
- 0.0
position_covariance_type: 0
---
header:
  stamp:
    sec: 1685637611
    nanosec: 351263194
  frame_id: gps_left
status:
  status: 0
  service: 1
latitude: 49.8923593
longitude: -97.20609119999999
altitude: 197.207
position_covariance:
- 0.0
- 0.0
- 0.0
- 0.0
- 0.0
- 0.0
- 0.0
- 0.0
- 0.0
position_covariance_type: 0
---
header:
  stamp:
    sec: 1685637611
    nanosec: 483332296
  frame_id: gps_left
status:
  status: 0
  service: 1
latitude: 49.892359400000004
longitude: -97.2060911
altitude: 197.191
position_covariance:
- 0.0
- 0.0
- 0.0
- 0.0
- 0.0
- 0.0
- 0.0
- 0.0
- 0.0
position_covariance_type: 0
---
header:
  stamp:
    sec: 1685637611
    nanosec: 594795529
  frame_id: gps_left
status:
  status: 0
  service: 1
latitude: 49.892359600000006
longitude: -97.206091
altitude: 197.171
position_covariance:
- 0.0
- 0.0
- 0.0
- 0.0
- 0.0
- 0.0
- 0.0
- 0.0
- 0.0
position_covariance_type: 0
---
header:
  stamp:
    sec: 1685637611
    nanosec: 727139524
  frame_id: gps_left
status:
  status: 0
  service: 1
latitude: 49.8923597
longitude: -97.2060908
altitude: 197.15
position_covariance:
- 0.0
- 0.0
- 0.0
- 0.0
- 0.0
- 0.0
- 0.0
- 0.0
- 0.0
position_covariance_type: 0
---
header:
  stamp:
    sec: 1685637611
    nanosec: 882305424
  frame_id: gps_left
status:
  status: 0
  service: 1
latitude: 49.892359899999995
longitude: -97.2060901
altitude: 197.067
position_covariance:
- 0.0
- 0.0
- 0.0
- 0.0
- 0.0
- 0.0
- 0.0
- 0.0
- 0.0
position_covariance_type: 0
---
header:
  stamp:
    sec: 1685637611
    nanosec: 994688828
  frame_id: gps_left
status:
  status: 0
  service: 1
latitude: 49.892359899999995
longitude: -97.2060901
altitude: 197.06
position_covariance:
- 0.0
- 0.0
- 0.0
- 0.0
- 0.0
- 0.0
- 0.0
- 0.0
- 0.0
position_covariance_type: 0
---
header:
  stamp:
    sec: 1685637612
    nanosec: 109310317
  frame_id: gps_left
status:
  status: 0
  service: 1
latitude: 49.8923601
longitude: -97.2060901
altitude: 197.025
position_covariance:
- 0.0
- 0.0
- 0.0
- 0.0
- 0.0
- 0.0
- 0.0
- 0.0
- 0.0
position_covariance_type: 0
---
header:
  stamp:
    sec: 1685637612
    nanosec: 238828391
  frame_id: gps_left
status:
  status: 0
  service: 1
latitude: 49.89236030000001
longitude: -97.2060897
altitude: 196.969
position_covariance:
- 0.0
- 0.0
- 0.0
- 0.0
- 0.0
- 0.0
- 0.0
- 0.0
- 0.0
position_covariance_type: 0
---
header:
  stamp:
    sec: 1685637612
    nanosec: 370326011
  frame_id: gps_left
status:
  status: 0
  service: 1
latitude: 49.89236040000001
longitude: -97.2060898
altitude: 196.966
position_covariance:
- 0.0
- 0.0
- 0.0
- 0.0
- 0.0
- 0.0
- 0.0
- 0.0
- 0.0
position_covariance_type: 0
---
header:
  stamp:
    sec: 1685637612
    nanosec: 483289600
  frame_id: gps_left
status:
  status: 0
  service: 1
latitude: 49.892360499999995
longitude: -97.2060894
altitude: 196.93200000000002
position_covariance:
- 0.0
- 0.0
- 0.0
- 0.0
- 0.0
- 0.0
- 0.0
- 0.0
- 0.0
position_covariance_type: 0
---
header:
  stamp:
    sec: 1685637612
    nanosec: 594681758
  frame_id: gps_left
status:
  status: 0
  service: 1
latitude: 49.892360599999996
longitude: -97.2060892
altitude: 196.916
position_covariance:
- 0.0
- 0.0
- 0.0
- 0.0
- 0.0
- 0.0
- 0.0
- 0.0
- 0.0
position_covariance_type: 0
---
header:
  stamp:
    sec: 1685637612
    nanosec: 747429692
  frame_id: gps_left
status:
  status: 0
  service: 1
latitude: 49.8923609
longitude: -97.2060892
altitude: 196.872
position_covariance:
- 0.0
- 0.0
- 0.0
- 0.0
- 0.0
- 0.0
- 0.0
- 0.0
- 0.0
position_covariance_type: 0
---
header:
  stamp:
    sec: 1685637612
    nanosec: 880430645
  frame_id: gps_left
status:
  status: 0
  service: 1
latitude: 49.89236100000001
longitude: -97.20608899999999
altitude: 196.85
position_covariance:
- 0.0
- 0.0
- 0.0
- 0.0
- 0.0
- 0.0
- 0.0
- 0.0
- 0.0
position_covariance_type: 0
---
header:
  stamp:
    sec: 1685637612
    nanosec: 993254100
  frame_id: gps_left
status:
  status: 0
  service: 1
latitude: 49.892361099999995
longitude: -97.20608879999999
altitude: 196.823
position_covariance:
- 0.0
- 0.0
- 0.0
- 0.0
- 0.0
- 0.0
- 0.0
- 0.0
- 0.0
position_covariance_type: 0
---
header:
  stamp:
    sec: 1685637613
    nanosec: 103803372
  frame_id: gps_left
status:
  status: 0
  service: 1
latitude: 49.892361199999996
longitude: -97.2060887
altitude: 196.79500000000002
position_covariance:
- 0.0
- 0.0
- 0.0
- 0.0
- 0.0
- 0.0
- 0.0
- 0.0
- 0.0
position_covariance_type: 0
---
header:
  stamp:
    sec: 1685637613
    nanosec: 236620892
  frame_id: gps_left
status:
  status: 0
  service: 1
latitude: 49.8923615
longitude: -97.2060884
altitude: 196.77100000000002
position_covariance:
- 0.0
- 0.0
- 0.0
- 0.0
- 0.0
- 0.0
- 0.0
- 0.0
- 0.0
position_covariance_type: 0
---
header:
  stamp:
    sec: 1685637613
    nanosec: 368414525
  frame_id: gps_left
status:
  status: 0
  service: 1
latitude: 49.8923615
longitude: -97.2060884
altitude: 196.725
position_covariance:
- 0.0
- 0.0
- 0.0
- 0.0
- 0.0
- 0.0
- 0.0
- 0.0
- 0.0
position_covariance_type: 0
---
header:
  stamp:
    sec: 1685637613
    nanosec: 481060820
  frame_id: gps_left
status:
  status: 0
  service: 1
latitude: 49.892361699999995
longitude: -97.2060881
altitude: 196.732
position_covariance:
- 0.0
- 0.0
- 0.0
- 0.0
- 0.0
- 0.0
- 0.0
- 0.0
- 0.0
position_covariance_type: 0
---
header:
  stamp:
    sec: 1685637613
    nanosec: 612442659
  frame_id: gps_left
status:
  status: 0
  service: 1
latitude: 49.892361699999995
longitude: -97.2060881
altitude: 196.722
position_covariance:
- 0.0
- 0.0
- 0.0
- 0.0
- 0.0
- 0.0
- 0.0
- 0.0
- 0.0
position_covariance_type: 0
---
header:
  stamp:
    sec: 1685637613
    nanosec: 723450831
  frame_id: gps_left
status:
  status: 0
  service: 1
latitude: 49.892361699999995
longitude: -97.2060882
altitude: 196.729
position_covariance:
- 0.0
- 0.0
- 0.0
- 0.0
- 0.0
- 0.0
- 0.0
- 0.0
- 0.0
position_covariance_type: 0
---
header:
  stamp:
    sec: 1685637613
    nanosec: 990970630
  frame_id: gps_left
status:
  status: 0
  service: 1
latitude: 49.89236209999999
longitude: -97.20608779999999
altitude: 196.668
position_covariance:
- 0.0
- 0.0
- 0.0
- 0.0
- 0.0
- 0.0
- 0.0
- 0.0
- 0.0
position_covariance_type: 0
---
header:
  stamp:
    sec: 1685637614
    nanosec: 256360091
  frame_id: gps_left
status:
  status: 0
  service: 1
latitude: 49.892362399999996
longitude: -97.2060872
altitude: 196.612
position_covariance:
- 0.0
- 0.0
- 0.0
- 0.0
- 0.0
- 0.0
- 0.0
- 0.0
- 0.0
position_covariance_type: 0
---
header:
  stamp:
    sec: 1685637614
    nanosec: 612862736
  frame_id: gps_left
status:
  status: 0
  service: 1
latitude: 49.8923628
longitude: -97.2060862
altitude: 196.535
position_covariance:
- 0.0
- 0.0
- 0.0
- 0.0
- 0.0
- 0.0
- 0.0
- 0.0
- 0.0
position_covariance_type: 0
---
header:
  stamp:
    sec: 1685637614
    nanosec: 746212120
  frame_id: gps_left
status:
  status: 0
  service: 1
latitude: 49.8923631
longitude: -97.206086
altitude: 196.50300000000001
position_covariance:
- 0.0
- 0.0
- 0.0
- 0.0
- 0.0
- 0.0
- 0.0
- 0.0
- 0.0
position_covariance_type: 0
---
header:
  stamp:
    sec: 1685637615
    nanosec: 143425264
  frame_id: gps_left
status:
  status: 0
  service: 1
latitude: 49.892363599999996
longitude: -97.20608530000001
altitude: 196.435
position_covariance:
- 0.0
- 0.0
- 0.0
- 0.0
- 0.0
- 0.0
- 0.0
- 0.0
- 0.0
position_covariance_type: 0
---
header:
  stamp:
    sec: 1685637615
    nanosec: 611173788
  frame_id: gps_left
status:
  status: 0
  service: 1
latitude: 49.8923642
longitude: -97.2060849
altitude: 196.377
position_covariance:
- 0.0
- 0.0
- 0.0
- 0.0
- 0.0
- 0.0
- 0.0
- 0.0
- 0.0
position_covariance_type: 0
---
header:
  stamp:
    sec: 1685637616
    nanosec: 609738450
  frame_id: gps_left
status:
  status: 0
  service: 1
latitude: 49.892365299999994
longitude: -97.20608410000001
altitude: 196.21
position_covariance:
- 0.0
- 0.0
- 0.0
- 0.0
- 0.0
- 0.0
- 0.0
- 0.0
- 0.0
position_covariance_type: 0
---
header:
  stamp:
    sec: 1685637616
    nanosec: 763362392
  frame_id: gps_left
status:
  status: 0
  service: 1
latitude: 49.8923656
longitude: -97.2060838
altitude: 196.167
position_covariance:
- 0.0
- 0.0
- 0.0
- 0.0
- 0.0
- 0.0
- 0.0
- 0.0
- 0.0
position_covariance_type: 0
---
header:
  stamp:
    sec: 1685637616
    nanosec: 896635933
  frame_id: gps_left
status:
  status: 0
  service: 1
latitude: 49.892365700000006
longitude: -97.2060839
altitude: 196.156
position_covariance:
- 0.0
- 0.0
- 0.0
- 0.0
- 0.0
- 0.0
- 0.0
- 0.0
- 0.0
position_covariance_type: 0
---
header:
  stamp:
    sec: 1685637617
    nanosec: 8828287
  frame_id: gps_left
status:
  status: 0
  service: 1
latitude: 49.8923658
longitude: -97.20608329999999
altitude: 196.139
position_covariance:
- 0.0
- 0.0
- 0.0
- 0.0
- 0.0
- 0.0
- 0.0
- 0.0
- 0.0
position_covariance_type: 0
---
header:
  stamp:
    sec: 1685637617
    nanosec: 140522716
  frame_id: gps_left
status:
  status: 0
  service: 1
latitude: 49.892365999999996
longitude: -97.20608299999999
altitude: 196.112
position_covariance:
- 0.0
- 0.0
- 0.0
- 0.0
- 0.0
- 0.0
- 0.0
- 0.0
- 0.0
position_covariance_type: 0
---
header:
  stamp:
    sec: 1685637617
    nanosec: 497251227
  frame_id: gps_left
status:
  status: 0
  service: 1
latitude: 49.8923664
longitude: -97.206082
altitude: 196.023
position_covariance:
- 0.0
- 0.0
- 0.0
- 0.0
- 0.0
- 0.0
- 0.0
- 0.0
- 0.0
position_covariance_type: 0
---
header:
  stamp:
    sec: 1685637617
    nanosec: 628635561
  frame_id: gps_left
status:
  status: 0
  service: 1
latitude: 49.892366499999994
longitude: -97.20608179999999
altitude: 196.012
position_covariance:
- 0.0
- 0.0
- 0.0
- 0.0
- 0.0
- 0.0
- 0.0
- 0.0
- 0.0
position_covariance_type: 0
---
header:
  stamp:
    sec: 1685637617
    nanosec: 762776981
  frame_id: gps_left
status:
  status: 0
  service: 1
latitude: 49.8923668
longitude: -97.2060817
altitude: 195.984
position_covariance:
- 0.0
- 0.0
- 0.0
- 0.0
- 0.0
- 0.0
- 0.0
- 0.0
- 0.0
position_covariance_type: 0
---
header:
  stamp:
    sec: 1685637619
    nanosec: 114528232
  frame_id: gps_left
status:
  status: 0
  service: 1
latitude: 49.892368
longitude: -97.20607919999999
altitude: 195.784
position_covariance:
- 0.0
- 0.0
- 0.0
- 0.0
- 0.0
- 0.0
- 0.0
- 0.0
- 0.0
position_covariance_type: 0
---
header:
  stamp:
    sec: 1685637619
    nanosec: 270625406
  frame_id: gps_left
status:
  status: 0
  service: 1
latitude: 49.8923681
longitude: -97.20607919999999
altitude: 195.751
position_covariance:
- 0.0
- 0.0
- 0.0
- 0.0
- 0.0
- 0.0
- 0.0
- 0.0
- 0.0
position_covariance_type: 0
---
header:
  stamp:
    sec: 1685637619
    nanosec: 383309559
  frame_id: gps_left
status:
  status: 0
  service: 1
latitude: 49.8923682
longitude: -97.2060791
altitude: 195.748
position_covariance:
- 0.0
- 0.0
- 0.0
- 0.0
- 0.0
- 0.0
- 0.0
- 0.0
- 0.0
position_covariance_type: 0
---
header:
  stamp:
    sec: 1685637619
    nanosec: 516088037
  frame_id: gps_left
status:
  status: 0
  service: 1
latitude: 49.8923683
longitude: -97.2060788
altitude: 195.701
position_covariance:
- 0.0
- 0.0
- 0.0
- 0.0
- 0.0
- 0.0
- 0.0
- 0.0
- 0.0
position_covariance_type: 0
---
header:
  stamp:
    sec: 1685637619
    nanosec: 647824003
  frame_id: gps_left
status:
  status: 0
  service: 1
latitude: 49.892368399999995
longitude: -97.20607869999999
altitude: 195.704
position_covariance:
- 0.0
- 0.0
- 0.0
- 0.0
- 0.0
- 0.0
- 0.0
- 0.0
- 0.0
position_covariance_type: 0
---
header:
  stamp:
    sec: 1685637619
    nanosec: 760093577
  frame_id: gps_left
status:
  status: 0
  service: 1
latitude: 49.892368499999996
longitude: -97.2060784
altitude: 195.68200000000002
position_covariance:
- 0.0
- 0.0
- 0.0
- 0.0
- 0.0
- 0.0
- 0.0
- 0.0
- 0.0
position_covariance_type: 0
---
header:
  stamp:
    sec: 1685637619
    nanosec: 892176567
  frame_id: gps_left
status:
  status: 0
  service: 1
latitude: 49.892368499999996
longitude: -97.2060781
altitude: 195.65800000000002
position_covariance:
- 0.0
- 0.0
- 0.0
- 0.0
- 0.0
- 0.0
- 0.0
- 0.0
- 0.0
position_covariance_type: 0
---
header:
  stamp:
    sec: 1685637620
    nanosec: 24688601
  frame_id: gps_left
status:
  status: 0
  service: 1
latitude: 49.8923686
longitude: -97.20607799999999
altitude: 195.667
position_covariance:
- 0.0
- 0.0
- 0.0
- 0.0
- 0.0
- 0.0
- 0.0
- 0.0
- 0.0
position_covariance_type: 0
---
header:
  stamp:
    sec: 1685637620
    nanosec: 135590048
  frame_id: gps_left
status:
  status: 0
  service: 1
latitude: 49.8923687
longitude: -97.2060779
altitude: 195.653
position_covariance:
- 0.0
- 0.0
- 0.0
- 0.0
- 0.0
- 0.0
- 0.0
- 0.0
- 0.0
position_covariance_type: 0
---
header:
  stamp:
    sec: 1685637620
    nanosec: 270051323
  frame_id: gps_left
status:
  status: 0
  service: 1
latitude: 49.8923689
longitude: -97.20607749999999
altitude: 195.63400000000001
position_covariance:
- 0.0
- 0.0
- 0.0
- 0.0
- 0.0
- 0.0
- 0.0
- 0.0
- 0.0
position_covariance_type: 0
---
header:
  stamp:
    sec: 1685637620
    nanosec: 381137802
  frame_id: gps_left
status:
  status: 0
  service: 1
latitude: 49.8923689
longitude: -97.2060774
altitude: 195.629
position_covariance:
- 0.0
- 0.0
- 0.0
- 0.0
- 0.0
- 0.0
- 0.0
- 0.0
- 0.0
position_covariance_type: 0
---
header:
  stamp:
    sec: 1685637620
    nanosec: 534705997
  frame_id: gps_left
status:
  status: 0
  service: 1
latitude: 49.892369099999996
longitude: -97.2060771
altitude: 195.624
position_covariance:
- 0.0
- 0.0
- 0.0
- 0.0
- 0.0
- 0.0
- 0.0
- 0.0
- 0.0
position_covariance_type: 0
---
header:
  stamp:
    sec: 1685637620
    nanosec: 647026869
  frame_id: gps_left
status:
  status: 0
  service: 1
latitude: 49.892369200000005
longitude: -97.2060771
altitude: 195.624
position_covariance:
- 0.0
- 0.0
- 0.0
- 0.0
- 0.0
- 0.0
- 0.0
- 0.0
- 0.0
position_covariance_type: 0
---
header:
  stamp:
    sec: 1685637620
    nanosec: 758149094
  frame_id: gps_left
status:
  status: 0
  service: 1
latitude: 49.892369300000006
longitude: -97.206077
altitude: 195.619
position_covariance:
- 0.0
- 0.0
- 0.0
- 0.0
- 0.0
- 0.0
- 0.0
- 0.0
- 0.0
position_covariance_type: 0
---
header:
  stamp:
    sec: 1685637620
    nanosec: 911764140
  frame_id: gps_left
status:
  status: 0
  service: 1
latitude: 49.8923694
longitude: -97.2060771
altitude: 195.614
position_covariance:
- 0.0
- 0.0
- 0.0
- 0.0
- 0.0
- 0.0
- 0.0
- 0.0
- 0.0
position_covariance_type: 0
---
header:
  stamp:
    sec: 1685637621
    nanosec: 24159543
  frame_id: gps_left
status:
  status: 0
  service: 1
latitude: 49.8923695
longitude: -97.206077
altitude: 195.616
position_covariance:
- 0.0
- 0.0
- 0.0
- 0.0
- 0.0
- 0.0
- 0.0
- 0.0
- 0.0
position_covariance_type: 0
---
header:
  stamp:
    sec: 1685637621
    nanosec: 156137504
  frame_id: gps_left
status:
  status: 0
  service: 1
latitude: 49.892369599999995
longitude: -97.2060767
altitude: 195.597
position_covariance:
- 0.0
- 0.0
- 0.0
- 0.0
- 0.0
- 0.0
- 0.0
- 0.0
- 0.0
position_covariance_type: 0
---
header:
  stamp:
    sec: 1685637621
    nanosec: 268389733
  frame_id: gps_left
status:
  status: 0
  service: 1
latitude: 49.892369599999995
longitude: -97.2060767
altitude: 195.596
position_covariance:
- 0.0
- 0.0
- 0.0
- 0.0
- 0.0
- 0.0
- 0.0
- 0.0
- 0.0
position_covariance_type: 0
---
header:
  stamp:
    sec: 1685637621
    nanosec: 399785652
  frame_id: gps_left
status:
  status: 0
  service: 1
latitude: 49.892369699999996
longitude: -97.2060765
altitude: 195.582
position_covariance:
- 0.0
- 0.0
- 0.0
- 0.0
- 0.0
- 0.0
- 0.0
- 0.0
- 0.0
position_covariance_type: 0
---
header:
  stamp:
    sec: 1685637621
    nanosec: 512355207
  frame_id: gps_left
status:
  status: 0
  service: 1
latitude: 49.89236979999999
longitude: -97.2060765
altitude: 195.591
position_covariance:
- 0.0
- 0.0
- 0.0
- 0.0
- 0.0
- 0.0
- 0.0
- 0.0
- 0.0
position_covariance_type: 0
---
header:
  stamp:
    sec: 1685637621
    nanosec: 644670367
  frame_id: gps_left
status:
  status: 0
  service: 1
latitude: 49.89236979999999
longitude: -97.20607629999999
altitude: 195.571
position_covariance:
- 0.0
- 0.0
- 0.0
- 0.0
- 0.0
- 0.0
- 0.0
- 0.0
- 0.0
position_covariance_type: 0
---
header:
  stamp:
    sec: 1685637621
    nanosec: 777885825
  frame_id: gps_left
status:
  status: 0
  service: 1
latitude: 49.89237
longitude: -97.2060762
altitude: 195.561
position_covariance:
- 0.0
- 0.0
- 0.0
- 0.0
- 0.0
- 0.0
- 0.0
- 0.0
- 0.0
position_covariance_type: 0
---
header:
  stamp:
    sec: 1685637621
    nanosec: 910745875
  frame_id: gps_left
status:
  status: 0
  service: 1
latitude: 49.89237010000001
longitude: -97.206076
altitude: 195.57500000000002
position_covariance:
- 0.0
- 0.0
- 0.0
- 0.0
- 0.0
- 0.0
- 0.0
- 0.0
- 0.0
position_covariance_type: 0
---
header:
  stamp:
    sec: 1685637622
    nanosec: 23276676
  frame_id: gps_left
status:
  status: 0
  service: 1
latitude: 49.892370199999995
longitude: -97.2060758
altitude: 195.534
position_covariance:
- 0.0
- 0.0
- 0.0
- 0.0
- 0.0
- 0.0
- 0.0
- 0.0
- 0.0
position_covariance_type: 0
---
header:
  stamp:
    sec: 1685637622
    nanosec: 155894251
  frame_id: gps_left
status:
  status: 0
  service: 1
latitude: 49.892370400000004
longitude: -97.2060759
altitude: 195.518
position_covariance:
- 0.0
- 0.0
- 0.0
- 0.0
- 0.0
- 0.0
- 0.0
- 0.0
- 0.0
position_covariance_type: 0
---
header:
  stamp:
    sec: 1685637622
    nanosec: 267259399
  frame_id: gps_left
status:
  status: 0
  service: 1
latitude: 49.8923705
longitude: -97.2060758
altitude: 195.50300000000001
position_covariance:
- 0.0
- 0.0
- 0.0
- 0.0
- 0.0
- 0.0
- 0.0
- 0.0
- 0.0
position_covariance_type: 0
---
header:
  stamp:
    sec: 1685637622
    nanosec: 511705662
  frame_id: gps_left
status:
  status: 0
  service: 1
latitude: 49.8923707
longitude: -97.2060759
altitude: 195.46800000000002
position_covariance:
- 0.0
- 0.0
- 0.0
- 0.0
- 0.0
- 0.0
- 0.0
- 0.0
- 0.0
position_covariance_type: 0
---
header:
  stamp:
    sec: 1685637622
    nanosec: 644366535
  frame_id: gps_left
status:
  status: 0
  service: 1
latitude: 49.892370799999995
longitude: -97.20607559999999
altitude: 195.464
position_covariance:
- 0.0
- 0.0
- 0.0
- 0.0
- 0.0
- 0.0
- 0.0
- 0.0
- 0.0
position_covariance_type: 0
---
header:
  stamp:
    sec: 1685637622
    nanosec: 775976607
  frame_id: gps_left
status:
  status: 0
  service: 1
latitude: 49.892371
longitude: -97.20607559999999
altitude: 195.451
position_covariance:
- 0.0
- 0.0
- 0.0
- 0.0
- 0.0
- 0.0
- 0.0
- 0.0
- 0.0
position_covariance_type: 0
---
header:
  stamp:
    sec: 1685637622
    nanosec: 909140607
  frame_id: gps_left
status:
  status: 0
  service: 1
latitude: 49.892371
longitude: -97.2060755
altitude: 195.422
position_covariance:
- 0.0
- 0.0
- 0.0
- 0.0
- 0.0
- 0.0
- 0.0
- 0.0
- 0.0
position_covariance_type: 0
---
header:
  stamp:
    sec: 1685637623
    nanosec: 21048788
  frame_id: gps_left
status:
  status: 0
  service: 1
latitude: 49.89237109999999
longitude: -97.2060752
altitude: 195.422
position_covariance:
- 0.0
- 0.0
- 0.0
- 0.0
- 0.0
- 0.0
- 0.0
- 0.0
- 0.0
position_covariance_type: 0
---
header:
  stamp:
    sec: 1685637623
    nanosec: 398375517
  frame_id: gps_left
status:
  status: 0
  service: 1
latitude: 49.892371499999996
longitude: -97.20607509999999
altitude: 195.392
position_covariance:
- 0.0
- 0.0
- 0.0
- 0.0
- 0.0
- 0.0
- 0.0
- 0.0
- 0.0
position_covariance_type: 0
---
header:
  stamp:
    sec: 1685637623
    nanosec: 509700376
  frame_id: gps_left
status:
  status: 0
  service: 1
latitude: 49.8923717
longitude: -97.206075
altitude: 195.38400000000001
position_covariance:
- 0.0
- 0.0
- 0.0
- 0.0
- 0.0
- 0.0
- 0.0
- 0.0
- 0.0
position_covariance_type: 0
---
header:
  stamp:
    sec: 1685637623
    nanosec: 662925483
  frame_id: gps_left
status:
  status: 0
  service: 1
latitude: 49.8923718
longitude: -97.20607489999999
altitude: 195.367
position_covariance:
- 0.0
- 0.0
- 0.0
- 0.0
- 0.0
- 0.0
- 0.0
- 0.0
- 0.0
position_covariance_type: 0
---
header:
  stamp:
    sec: 1685637623
    nanosec: 775444892
  frame_id: gps_left
status:
  status: 0
  service: 1
latitude: 49.89237189999999
longitude: -97.20607489999999
altitude: 195.359
position_covariance:
- 0.0
- 0.0
- 0.0
- 0.0
- 0.0
- 0.0
- 0.0
- 0.0
- 0.0
position_covariance_type: 0
---
header:
  stamp:
    sec: 1685637624
    nanosec: 18255753
  frame_id: gps_left
status:
  status: 0
  service: 1
latitude: 49.892372099999996
longitude: -97.2060748
altitude: 195.338
position_covariance:
- 0.0
- 0.0
- 0.0
- 0.0
- 0.0
- 0.0
- 0.0
- 0.0
- 0.0
position_covariance_type: 0
---
header:
  stamp:
    sec: 1685637624
    nanosec: 41028088
  frame_id: gps_left
status:
  status: 0
  service: 1
latitude: 49.8923722
longitude: -97.2060747
altitude: 195.327
position_covariance:
- 0.0
- 0.0
- 0.0
- 0.0
- 0.0
- 0.0
- 0.0
- 0.0
- 0.0
position_covariance_type: 0
---
header:
  stamp:
    sec: 1685637624
    nanosec: 663276239
  frame_id: gps_left
status:
  status: 0
  service: 1
latitude: 49.8923728
longitude: -97.20607369999999
altitude: 195.22400000000002
position_covariance:
- 0.0
- 0.0
- 0.0
- 0.0
- 0.0
- 0.0
- 0.0
- 0.0
- 0.0
position_covariance_type: 0
---
header:
  stamp:
    sec: 1685637625
    nanosec: 41198388
  frame_id: gps_left
status:
  status: 0
  service: 1
latitude: 49.8923732
longitude: -97.2060729
altitude: 195.151
position_covariance:
- 0.0
- 0.0
- 0.0
- 0.0
- 0.0
- 0.0
- 0.0
- 0.0
- 0.0
position_covariance_type: 0
---
header:
  stamp:
    sec: 1685637625
    nanosec: 171858369
  frame_id: gps_left
status:
  status: 0
  service: 1
latitude: 49.8923732
longitude: -97.2060728
altitude: 195.12800000000001
position_covariance:
- 0.0
- 0.0
- 0.0
- 0.0
- 0.0
- 0.0
- 0.0
- 0.0
- 0.0
position_covariance_type: 0
---
header:
  stamp:
    sec: 1685637625
    nanosec: 549084070
  frame_id: gps_left
status:
  status: 0
  service: 1
latitude: 49.8923736
longitude: -97.20607249999999
altitude: 195.08
position_covariance:
- 0.0
- 0.0
- 0.0
- 0.0
- 0.0
- 0.0
- 0.0
- 0.0
- 0.0
position_covariance_type: 0
---
header:
  stamp:
    sec: 1685637625
    nanosec: 772625187
  frame_id: gps_left
status:
  status: 0
  service: 1
latitude: 49.89237379999999
longitude: -97.20607249999999
altitude: 195.04500000000002
position_covariance:
- 0.0
- 0.0
- 0.0
- 0.0
- 0.0
- 0.0
- 0.0
- 0.0
- 0.0
position_covariance_type: 0
---
header:
  stamp:
    sec: 1685637626
    nanosec: 169883130
  frame_id: gps_left
status:
  status: 0
  service: 1
latitude: 49.89237389999999
longitude: -97.2060724
altitude: 195.018
position_covariance:
- 0.0
- 0.0
- 0.0
- 0.0
- 0.0
- 0.0
- 0.0
- 0.0
- 0.0
position_covariance_type: 0
---
header:
  stamp:
    sec: 1685637626
    nanosec: 770109571
  frame_id: gps_left
status:
  status: 0
  service: 1
latitude: 49.89237439999999
longitude: -97.20607179999999
altitude: 194.916
position_covariance:
- 0.0
- 0.0
- 0.0
- 0.0
- 0.0
- 0.0
- 0.0
- 0.0
- 0.0
position_covariance_type: 0
---
header:
  stamp:
    sec: 1685637626
    nanosec: 903687829
  frame_id: gps_left
status:
  status: 0
  service: 1
latitude: 49.892374499999995
longitude: -97.2060716
altitude: 194.90800000000002
position_covariance:
- 0.0
- 0.0
- 0.0
- 0.0
- 0.0
- 0.0
- 0.0
- 0.0
- 0.0
position_covariance_type: 0
---
header:
  stamp:
    sec: 1685637627
    nanosec: 13221886
  frame_id: gps_left
status:
  status: 0
  service: 1
latitude: 49.892374499999995
longitude: -97.2060717
altitude: 194.897
position_covariance:
- 0.0
- 0.0
- 0.0
- 0.0
- 0.0
- 0.0
- 0.0
- 0.0
- 0.0
position_covariance_type: 0
---
header:
  stamp:
    sec: 1685637627
    nanosec: 148612610
  frame_id: gps_left
status:
  status: 0
  service: 1
latitude: 49.8923748
longitude: -97.2060716
altitude: 194.872
position_covariance:
- 0.0
- 0.0
- 0.0
- 0.0
- 0.0
- 0.0
- 0.0
- 0.0
- 0.0
position_covariance_type: 0
---
header:
  stamp:
    sec: 1685637627
    nanosec: 280012369
  frame_id: gps_left
status:
  status: 0
  service: 1
latitude: 49.8923748
longitude: -97.2060715
altitude: 194.866
position_covariance:
- 0.0
- 0.0
- 0.0
- 0.0
- 0.0
- 0.0
- 0.0
- 0.0
- 0.0
position_covariance_type: 0
---
header:
  stamp:
    sec: 1685637627
    nanosec: 392430813
  frame_id: gps_left
status:
  status: 0
  service: 1
latitude: 49.8923749
longitude: -97.2060716
altitude: 194.86
position_covariance:
- 0.0
- 0.0
- 0.0
- 0.0
- 0.0
- 0.0
- 0.0
- 0.0
- 0.0
position_covariance_type: 0
---
header:
  stamp:
    sec: 1685637627
    nanosec: 525499863
  frame_id: gps_left
status:
  status: 0
  service: 1
latitude: 49.89237509999999
longitude: -97.2060717
altitude: 194.821
position_covariance:
- 0.0
- 0.0
- 0.0
- 0.0
- 0.0
- 0.0
- 0.0
- 0.0
- 0.0
position_covariance_type: 0
---
header:
  stamp:
    sec: 1685637627
    nanosec: 769293617
  frame_id: gps_left
status:
  status: 0
  service: 1
latitude: 49.8923752
longitude: -97.2060716
altitude: 194.791
position_covariance:
- 0.0
- 0.0
- 0.0
- 0.0
- 0.0
- 0.0
- 0.0
- 0.0
- 0.0
position_covariance_type: 0
---
header:
  stamp:
    sec: 1685637628
    nanosec: 12459469
  frame_id: gps_left
status:
  status: 0
  service: 1
latitude: 49.8923754
longitude: -97.2060716
altitude: 194.746
position_covariance:
- 0.0
- 0.0
- 0.0
- 0.0
- 0.0
- 0.0
- 0.0
- 0.0
- 0.0
position_covariance_type: 0
---
header:
  stamp:
    sec: 1685637628
    nanosec: 146138308
  frame_id: gps_left
status:
  status: 0
  service: 1
latitude: 49.89237550000001
longitude: -97.2060716
altitude: 194.735
position_covariance:
- 0.0
- 0.0
- 0.0
- 0.0
- 0.0
- 0.0
- 0.0
- 0.0
- 0.0
position_covariance_type: 0
---
header:
  stamp:
    sec: 1685637628
    nanosec: 257772332
  frame_id: gps_left
status:
  status: 0
  service: 1
latitude: 49.8923756
longitude: -97.2060716
altitude: 194.723
position_covariance:
- 0.0
- 0.0
- 0.0
- 0.0
- 0.0
- 0.0
- 0.0
- 0.0
- 0.0
position_covariance_type: 0
---
header:
  stamp:
    sec: 1685637628
    nanosec: 390314606
  frame_id: gps_left
status:
  status: 0
  service: 1
latitude: 49.892375699999995
longitude: -97.20607179999999
altitude: 194.709
position_covariance:
- 0.0
- 0.0
- 0.0
- 0.0
- 0.0
- 0.0
- 0.0
- 0.0
- 0.0
position_covariance_type: 0
---
header:
  stamp:
    sec: 1685637628
    nanosec: 768598211
  frame_id: gps_left
status:
  status: 0
  service: 1
latitude: 49.892376
longitude: -97.2060722
altitude: 194.713
position_covariance:
- 0.0
- 0.0
- 0.0
- 0.0
- 0.0
- 0.0
- 0.0
- 0.0
- 0.0
position_covariance_type: 0
---
header:
  stamp:
    sec: 1685637628
    nanosec: 900650607
  frame_id: gps_left
status:
  status: 0
  service: 1
latitude: 49.89237609999999
longitude: -97.2060724
altitude: 194.708
position_covariance:
- 0.0
- 0.0
- 0.0
- 0.0
- 0.0
- 0.0
- 0.0
- 0.0
- 0.0
position_covariance_type: 0
---
header:
  stamp:
    sec: 1685637629
    nanosec: 10424323
  frame_id: gps_left
status:
  status: 0
  service: 1
latitude: 49.89237609999999
longitude: -97.20607249999999
altitude: 194.73000000000002
position_covariance:
- 0.0
- 0.0
- 0.0
- 0.0
- 0.0
- 0.0
- 0.0
- 0.0
- 0.0
position_covariance_type: 0
---
header:
  stamp:
    sec: 1685637629
    nanosec: 165122904
  frame_id: gps_left
status:
  status: 0
  service: 1
latitude: 49.89237620000001
longitude: -97.2060726
altitude: 194.685
position_covariance:
- 0.0
- 0.0
- 0.0
- 0.0
- 0.0
- 0.0
- 0.0
- 0.0
- 0.0
position_covariance_type: 0
---
header:
  stamp:
    sec: 1685637629
    nanosec: 388428234
  frame_id: gps_left
status:
  status: 0
  service: 1
latitude: 49.89237629999999
longitude: -97.2060729
altitude: 194.696
position_covariance:
- 0.0
- 0.0
- 0.0
- 0.0
- 0.0
- 0.0
- 0.0
- 0.0
- 0.0
position_covariance_type: 0
---
header:
  stamp:
    sec: 1685637629
    nanosec: 520158984
  frame_id: gps_left
status:
  status: 0
  service: 1
latitude: 49.8923764
longitude: -97.20607319999999
altitude: 194.725
position_covariance:
- 0.0
- 0.0
- 0.0
- 0.0
- 0.0
- 0.0
- 0.0
- 0.0
- 0.0
position_covariance_type: 0
---
header:
  stamp:
    sec: 1685637629
    nanosec: 765306047
  frame_id: gps_left
status:
  status: 0
  service: 1
latitude: 49.8923766
longitude: -97.2060734
altitude: 194.723
position_covariance:
- 0.0
- 0.0
- 0.0
- 0.0
- 0.0
- 0.0
- 0.0
- 0.0
- 0.0
position_covariance_type: 0
---
header:
  stamp:
    sec: 1685637629
    nanosec: 898544577
  frame_id: gps_left
status:
  status: 0
  service: 1
latitude: 49.89237670000001
longitude: -97.2060735
altitude: 194.707
position_covariance:
- 0.0
- 0.0
- 0.0
- 0.0
- 0.0
- 0.0
- 0.0
- 0.0
- 0.0
position_covariance_type: 0
---
header:
  stamp:
    sec: 1685637630
    nanosec: 31208617
  frame_id: gps_left
status:
  status: 0
  service: 1
latitude: 49.89237680000001
longitude: -97.20607369999999
altitude: 194.73000000000002
position_covariance:
- 0.0
- 0.0
- 0.0
- 0.0
- 0.0
- 0.0
- 0.0
- 0.0
- 0.0
position_covariance_type: 0
---
header:
  stamp:
    sec: 1685637630
    nanosec: 276736081
  frame_id: gps_left
status:
  status: 0
  service: 1
latitude: 49.892376899999995
longitude: -97.2060747
altitude: 194.743
position_covariance:
- 0.0
- 0.0
- 0.0
- 0.0
- 0.0
- 0.0
- 0.0
- 0.0
- 0.0
position_covariance_type: 0
---
header:
  stamp:
    sec: 1685637630
    nanosec: 388249716
  frame_id: gps_left
status:
  status: 0
  service: 1
latitude: 49.892376999999996
longitude: -97.2060747
altitude: 194.736
position_covariance:
- 0.0
- 0.0
- 0.0
- 0.0
- 0.0
- 0.0
- 0.0
- 0.0
- 0.0
position_covariance_type: 0
---
header:
  stamp:
    sec: 1685637630
    nanosec: 765118247
  frame_id: gps_left
status:
  status: 0
  service: 1
latitude: 49.8923773
longitude: -97.206075
altitude: 194.71800000000002
position_covariance:
- 0.0
- 0.0
- 0.0
- 0.0
- 0.0
- 0.0
- 0.0
- 0.0
- 0.0
position_covariance_type: 0
---
header:
  stamp:
    sec: 1685637631
    nanosec: 274602753
  frame_id: gps_left
status:
  status: 0
  service: 1
latitude: 49.892377599999996
longitude: -97.206076
altitude: 194.766
position_covariance:
- 0.0
- 0.0
- 0.0
- 0.0
- 0.0
- 0.0
- 0.0
- 0.0
- 0.0
position_covariance_type: 0
---
header:
  stamp:
    sec: 1685637631
    nanosec: 385868376
  frame_id: gps_left
status:
  status: 0
  service: 1
latitude: 49.892377599999996
longitude: -97.2060759
altitude: 194.73000000000002
position_covariance:
- 0.0
- 0.0
- 0.0
- 0.0
- 0.0
- 0.0
- 0.0
- 0.0
- 0.0
position_covariance_type: 0
---
header:
  stamp:
    sec: 1685637632
    nanosec: 28303942
  frame_id: gps_left
status:
  status: 0
  service: 1
latitude: 49.892378099999995
longitude: -97.2060771
altitude: 194.711
position_covariance:
- 0.0
- 0.0
- 0.0
- 0.0
- 0.0
- 0.0
- 0.0
- 0.0
- 0.0
position_covariance_type: 0
---
header:
  stamp:
    sec: 1685637632
    nanosec: 276627341
  frame_id: gps_left
status:
  status: 0
  service: 1
latitude: 49.8923784
longitude: -97.2060779
altitude: 194.73000000000002
position_covariance:
- 0.0
- 0.0
- 0.0
- 0.0
- 0.0
- 0.0
- 0.0
- 0.0
- 0.0
position_covariance_type: 0
---
header:
  stamp:
    sec: 1685637632
    nanosec: 782177427
  frame_id: gps_left
status:
  status: 0
  service: 1
latitude: 49.8923789
longitude: -97.2060786
altitude: 194.748
position_covariance:
- 0.0
- 0.0
- 0.0
- 0.0
- 0.0
- 0.0
- 0.0
- 0.0
- 0.0
position_covariance_type: 0
---
header:
  stamp:
    sec: 1685637633
    nanosec: 48237796
  frame_id: gps_left
status:
  status: 0
  service: 1
latitude: 49.89237909999999
longitude: -97.20607919999999
altitude: 194.78900000000002
position_covariance:
- 0.0
- 0.0
- 0.0
- 0.0
- 0.0
- 0.0
- 0.0
- 0.0
- 0.0
position_covariance_type: 0
---
header:
  stamp:
    sec: 1685637634
    nanosec: 46316796
  frame_id: gps_left
status:
  status: 0
  service: 1
latitude: 49.892379899999995
longitude: -97.2060812
altitude: 194.863
position_covariance:
- 0.0
- 0.0
- 0.0
- 0.0
- 0.0
- 0.0
- 0.0
- 0.0
- 0.0
position_covariance_type: 0
---
header:
  stamp:
    sec: 1685637634
    nanosec: 269706673
  frame_id: gps_left
status:
  status: 0
  service: 1
latitude: 49.89238009999999
longitude: -97.2060817
altitude: 194.88
position_covariance:
- 0.0
- 0.0
- 0.0
- 0.0
- 0.0
- 0.0
- 0.0
- 0.0
- 0.0
position_covariance_type: 0
---
header:
  stamp:
    sec: 1685637634
    nanosec: 423328597
  frame_id: gps_left
status:
  status: 0
  service: 1
latitude: 49.89238029999999
longitude: -97.2060819
altitude: 194.86
position_covariance:
- 0.0
- 0.0
- 0.0
- 0.0
- 0.0
- 0.0
- 0.0
- 0.0
- 0.0
position_covariance_type: 0
---
header:
  stamp:
    sec: 1685637634
    nanosec: 779546842
  frame_id: gps_left
status:
  status: 0
  service: 1
latitude: 49.892380599999996
longitude: -97.2060826
altitude: 194.899
position_covariance:
- 0.0
- 0.0
- 0.0
- 0.0
- 0.0
- 0.0
- 0.0
- 0.0
- 0.0
position_covariance_type: 0
---
header:
  stamp:
    sec: 1685637634
    nanosec: 912364808
  frame_id: gps_left
status:
  status: 0
  service: 1
latitude: 49.8923808
longitude: -97.20608299999999
altitude: 194.879
position_covariance:
- 0.0
- 0.0
- 0.0
- 0.0
- 0.0
- 0.0
- 0.0
- 0.0
- 0.0
position_covariance_type: 0
---
header:
  stamp:
    sec: 1685637635
    nanosec: 269146406
  frame_id: gps_left
status:
  status: 0
  service: 1
latitude: 49.89238119999999
longitude: -97.20608349999999
altitude: 194.885
position_covariance:
- 0.0
- 0.0
- 0.0
- 0.0
- 0.0
- 0.0
- 0.0
- 0.0
- 0.0
position_covariance_type: 0
---
header:
  stamp:
    sec: 1685637635
    nanosec: 400364620
  frame_id: gps_left
status:
  status: 0
  service: 1
latitude: 49.89238119999999
longitude: -97.2060837
altitude: 194.906
position_covariance:
- 0.0
- 0.0
- 0.0
- 0.0
- 0.0
- 0.0
- 0.0
- 0.0
- 0.0
position_covariance_type: 0
---
header:
  stamp:
    sec: 1685637635
    nanosec: 645992792
  frame_id: gps_left
status:
  status: 0
  service: 1
latitude: 49.892381500000006
longitude: -97.2060843
altitude: 194.95000000000002
position_covariance:
- 0.0
- 0.0
- 0.0
- 0.0
- 0.0
- 0.0
- 0.0
- 0.0
- 0.0
position_covariance_type: 0
---
header:
  stamp:
    sec: 1685637636
    nanosec: 643929544
  frame_id: gps_left
status:
  status: 0
  service: 1
latitude: 49.892382399999995
longitude: -97.20608659999999
altitude: 195.037
position_covariance:
- 0.0
- 0.0
- 0.0
- 0.0
- 0.0
- 0.0
- 0.0
- 0.0
- 0.0
position_covariance_type: 0
---
header:
  stamp:
    sec: 1685637636
    nanosec: 775594818
  frame_id: gps_left
status:
  status: 0
  service: 1
latitude: 49.8923826
longitude: -97.206087
altitude: 195.067
position_covariance:
- 0.0
- 0.0
- 0.0
- 0.0
- 0.0
- 0.0
- 0.0
- 0.0
- 0.0
position_covariance_type: 0
---
header:
  stamp:
    sec: 1685637636
    nanosec: 909003308
  frame_id: gps_left
status:
  status: 0
  service: 1
latitude: 49.892382700000006
longitude: -97.20608709999999
altitude: 195.056
position_covariance:
- 0.0
- 0.0
- 0.0
- 0.0
- 0.0
- 0.0
- 0.0
- 0.0
- 0.0
position_covariance_type: 0
---
header:
  stamp:
    sec: 1685637637
    nanosec: 264443948
  frame_id: gps_left
status:
  status: 0
  service: 1
latitude: 49.8923831
longitude: -97.206088
altitude: 195.08700000000002
position_covariance:
- 0.0
- 0.0
- 0.0
- 0.0
- 0.0
- 0.0
- 0.0
- 0.0
- 0.0
position_covariance_type: 0
---
header:
  stamp:
    sec: 1685637637
    nanosec: 396484919
  frame_id: gps_left
status:
  status: 0
  service: 1
latitude: 49.8923832
longitude: -97.20608829999999
altitude: 195.097
position_covariance:
- 0.0
- 0.0
- 0.0
- 0.0
- 0.0
- 0.0
- 0.0
- 0.0
- 0.0
position_covariance_type: 0
---
header:
  stamp:
    sec: 1685637637
    nanosec: 641869048
  frame_id: gps_left
status:
  status: 0
  service: 1
latitude: 49.8923835
longitude: -97.20608879999999
altitude: 195.132
position_covariance:
- 0.0
- 0.0
- 0.0
- 0.0
- 0.0
- 0.0
- 0.0
- 0.0
- 0.0
position_covariance_type: 0
---
header:
  stamp:
    sec: 1685637637
    nanosec: 774499422
  frame_id: gps_left
status:
  status: 0
  service: 1
latitude: 49.8923836
longitude: -97.20608899999999
altitude: 195.154
position_covariance:
- 0.0
- 0.0
- 0.0
- 0.0
- 0.0
- 0.0
- 0.0
- 0.0
- 0.0
position_covariance_type: 0
---
header:
  stamp:
    sec: 1685637638
    nanosec: 19868062
  frame_id: gps_left
status:
  status: 0
  service: 1
latitude: 49.8923837
longitude: -97.2060893
altitude: 195.174
position_covariance:
- 0.0
- 0.0
- 0.0
- 0.0
- 0.0
- 0.0
- 0.0
- 0.0
- 0.0
position_covariance_type: 0
---
header:
  stamp:
    sec: 1685637638
    nanosec: 508200720
  frame_id: gps_left
status:
  status: 0
  service: 1
latitude: 49.8923841
longitude: -97.20609019999999
altitude: 195.274
position_covariance:
- 0.0
- 0.0
- 0.0
- 0.0
- 0.0
- 0.0
- 0.0
- 0.0
- 0.0
position_covariance_type: 0
---
header:
  stamp:
    sec: 1685637638
    nanosec: 774025077
  frame_id: gps_left
status:
  status: 0
  service: 1
latitude: 49.892384400000005
longitude: -97.2060908
altitude: 195.309
position_covariance:
- 0.0
- 0.0
- 0.0
- 0.0
- 0.0
- 0.0
- 0.0
- 0.0
- 0.0
position_covariance_type: 0
---
header:
  stamp:
    sec: 1685637639
    nanosec: 150997004
  frame_id: gps_left
status:
  status: 0
  service: 1
latitude: 49.8923847
longitude: -97.2060913
altitude: 195.352
position_covariance:
- 0.0
- 0.0
- 0.0
- 0.0
- 0.0
- 0.0
- 0.0
- 0.0
- 0.0
position_covariance_type: 0
---
header:
  stamp:
    sec: 1685637639
    nanosec: 772072297
  frame_id: gps_left
status:
  status: 0
  service: 1
latitude: 49.8923852
longitude: -97.2060921
altitude: 195.48000000000002
position_covariance:
- 0.0
- 0.0
- 0.0
- 0.0
- 0.0
- 0.0
- 0.0
- 0.0
- 0.0
position_covariance_type: 0
---
header:
  stamp:
    sec: 1685637639
    nanosec: 926443247
  frame_id: gps_left
status:
  status: 0
  service: 1
latitude: 49.8923852
longitude: -97.2060922
altitude: 195.475
position_covariance:
- 0.0
- 0.0
- 0.0
- 0.0
- 0.0
- 0.0
- 0.0
- 0.0
- 0.0
position_covariance_type: 0
---
header:
  stamp:
    sec: 1685637640
    nanosec: 170649082
  frame_id: gps_left
status:
  status: 0
  service: 1
latitude: 49.8923855
longitude: -97.2060927
altitude: 195.53
position_covariance:
- 0.0
- 0.0
- 0.0
- 0.0
- 0.0
- 0.0
- 0.0
- 0.0
- 0.0
position_covariance_type: 0
---
header:
  stamp:
    sec: 1685637640
    nanosec: 547668434
  frame_id: gps_left
status:
  status: 0
  service: 1
latitude: 49.8923858
longitude: -97.2060933
altitude: 195.576
position_covariance:
- 0.0
- 0.0
- 0.0
- 0.0
- 0.0
- 0.0
- 0.0
- 0.0
- 0.0
position_covariance_type: 0
---
header:
  stamp:
    sec: 1685637640
    nanosec: 660135040
  frame_id: gps_left
status:
  status: 0
  service: 1
latitude: 49.8923859
longitude: -97.2060936
altitude: 195.614
position_covariance:
- 0.0
- 0.0
- 0.0
- 0.0
- 0.0
- 0.0
- 0.0
- 0.0
- 0.0
position_covariance_type: 0
---
header:
  stamp:
    sec: 1685637640
    nanosec: 924712972
  frame_id: gps_left
status:
  status: 0
  service: 1
latitude: 49.8923861
longitude: -97.2060942
altitude: 195.62
position_covariance:
- 0.0
- 0.0
- 0.0
- 0.0
- 0.0
- 0.0
- 0.0
- 0.0
- 0.0
position_covariance_type: 0
---
header:
  stamp:
    sec: 1685637641
    nanosec: 57808039
  frame_id: gps_left
status:
  status: 0
  service: 1
latitude: 49.8923863
longitude: -97.2060944
altitude: 195.613
position_covariance:
- 0.0
- 0.0
- 0.0
- 0.0
- 0.0
- 0.0
- 0.0
- 0.0
- 0.0
position_covariance_type: 0
---
header:
  stamp:
    sec: 1685637641
    nanosec: 170011433
  frame_id: gps_left
status:
  status: 0
  service: 1
latitude: 49.8923864
longitude: -97.20609449999999
altitude: 195.64000000000001
position_covariance:
- 0.0
- 0.0
- 0.0
- 0.0
- 0.0
- 0.0
- 0.0
- 0.0
- 0.0
position_covariance_type: 0
---
header:
  stamp:
    sec: 1685637641
    nanosec: 434711419
  frame_id: gps_left
status:
  status: 0
  service: 1
latitude: 49.892386699999996
longitude: -97.2060953
altitude: 195.673
position_covariance:
- 0.0
- 0.0
- 0.0
- 0.0
- 0.0
- 0.0
- 0.0
- 0.0
- 0.0
position_covariance_type: 0
---
header:
  stamp:
    sec: 1685637641
    nanosec: 924326022
  frame_id: gps_left
status:
  status: 0
  service: 1
latitude: 49.8923871
longitude: -97.2060961
altitude: 195.742
position_covariance:
- 0.0
- 0.0
- 0.0
- 0.0
- 0.0
- 0.0
- 0.0
- 0.0
- 0.0
position_covariance_type: 0
---
header:
  stamp:
    sec: 1685637642
    nanosec: 55787607
  frame_id: gps_left
status:
  status: 0
  service: 1
latitude: 49.892387299999996
longitude: -97.2060965
altitude: 195.768
position_covariance:
- 0.0
- 0.0
- 0.0
- 0.0
- 0.0
- 0.0
- 0.0
- 0.0
- 0.0
position_covariance_type: 0
---
header:
  stamp:
    sec: 1685637642
    nanosec: 167397501
  frame_id: gps_left
status:
  status: 0
  service: 1
latitude: 49.89238739999999
longitude: -97.2060966
altitude: 195.77
position_covariance:
- 0.0
- 0.0
- 0.0
- 0.0
- 0.0
- 0.0
- 0.0
- 0.0
- 0.0
position_covariance_type: 0
---
header:
  stamp:
    sec: 1685637642
    nanosec: 413064266
  frame_id: gps_left
status:
  status: 0
  service: 1
latitude: 49.8923878
longitude: -97.2060972
altitude: 195.85500000000002
position_covariance:
- 0.0
- 0.0
- 0.0
- 0.0
- 0.0
- 0.0
- 0.0
- 0.0
- 0.0
position_covariance_type: 0
---
header:
  stamp:
    sec: 1685637642
    nanosec: 787737783
  frame_id: gps_left
status:
  status: 0
  service: 1
latitude: 49.8923881
longitude: -97.2060977
altitude: 195.91
position_covariance:
- 0.0
- 0.0
- 0.0
- 0.0
- 0.0
- 0.0
- 0.0
- 0.0
- 0.0
position_covariance_type: 0
---
header:
  stamp:
    sec: 1685637642
    nanosec: 923345957
  frame_id: gps_left
status:
  status: 0
  service: 1
latitude: 49.89238830000001
longitude: -97.20609809999999
altitude: 195.985
position_covariance:
- 0.0
- 0.0
- 0.0
- 0.0
- 0.0
- 0.0
- 0.0
- 0.0
- 0.0
position_covariance_type: 0
---
header:
  stamp:
    sec: 1685637643
    nanosec: 34256395
  frame_id: gps_left
status:
  status: 0
  service: 1
latitude: 49.892388399999994
longitude: -97.2060983
altitude: 196.016
position_covariance:
- 0.0
- 0.0
- 0.0
- 0.0
- 0.0
- 0.0
- 0.0
- 0.0
- 0.0
position_covariance_type: 0
---
header:
  stamp:
    sec: 1685637643
    nanosec: 144056223
  frame_id: gps_left
status:
  status: 0
  service: 1
latitude: 49.8923885
longitude: -97.2060983
altitude: 196.00900000000001
position_covariance:
- 0.0
- 0.0
- 0.0
- 0.0
- 0.0
- 0.0
- 0.0
- 0.0
- 0.0
position_covariance_type: 0
---
header:
  stamp:
    sec: 1685637643
    nanosec: 276784873
  frame_id: gps_left
status:
  status: 0
  service: 1
latitude: 49.8923885
longitude: -97.2060985
altitude: 196.037
position_covariance:
- 0.0
- 0.0
- 0.0
- 0.0
- 0.0
- 0.0
- 0.0
- 0.0
- 0.0
position_covariance_type: 0
---
header:
  stamp:
    sec: 1685637643
    nanosec: 410719466
  frame_id: gps_left
status:
  status: 0
  service: 1
latitude: 49.8923887
longitude: -97.20609879999999
altitude: 196.08
position_covariance:
- 0.0
- 0.0
- 0.0
- 0.0
- 0.0
- 0.0
- 0.0
- 0.0
- 0.0
position_covariance_type: 0
---
header:
  stamp:
    sec: 1685637643
    nanosec: 653830914
  frame_id: gps_left
status:
  status: 0
  service: 1
latitude: 49.89238889999999
longitude: -97.2060992
altitude: 196.115
position_covariance:
- 0.0
- 0.0
- 0.0
- 0.0
- 0.0
- 0.0
- 0.0
- 0.0
- 0.0
position_covariance_type: 0
---
header:
  stamp:
    sec: 1685637643
    nanosec: 766337585
  frame_id: gps_left
status:
  status: 0
  service: 1
latitude: 49.892389
longitude: -97.20609929999999
altitude: 196.136
position_covariance:
- 0.0
- 0.0
- 0.0
- 0.0
- 0.0
- 0.0
- 0.0
- 0.0
- 0.0
position_covariance_type: 0
---
header:
  stamp:
    sec: 1685637643
    nanosec: 919756812
  frame_id: gps_left
status:
  status: 0
  service: 1
latitude: 49.8923893
longitude: -97.20609999999999
altitude: 196.159
position_covariance:
- 0.0
- 0.0
- 0.0
- 0.0
- 0.0
- 0.0
- 0.0
- 0.0
- 0.0
position_covariance_type: 0
---
header:
  stamp:
    sec: 1685637644
    nanosec: 32787795
  frame_id: gps_left
status:
  status: 0
  service: 1
latitude: 49.8923893
longitude: -97.2061002
altitude: 196.159
position_covariance:
- 0.0
- 0.0
